{
  "locations": [
    {
      "id": 1,
      "region": "יהודה",
      "name": "עשהאל",
      "generalData": "עשהאל, שייך למועצה אזורית הר חברון הינו ישוב בו מתגוררות כ-90 משפחות",
      "location": [
        31.373273179576,
        35.04362236931841
      ],
      "defaultZoom": 15
    },
    {
      "id": 2,
      "region": "יהודה",
      "name": "אשתמוע",
      "generalData": "אשתמוע, נקרא גם מצפה אשתמוע שייך למועצה אזורית הר חברון ומוגדר כשכונה צפונית לשמעה, ביישוב מתגוררות כ-15 משפחות",
      "location": [
        31.393229972326836, 35.01573172244821
      ]
    },
    {
      "id": 3,
      "region": "יהודה",
      "name": "בוסטר",
      "generalData": "בוסטר, נקרא גם גבעת הבוסטן, הינו שכונה של נגוהות בה מתגוררות כ-10 משפחות",
      "location": [
        31.496662796339606,
        34.97070400000001
      ],
      "defaultZoom": 16
    },
    {
      "id": 4,
      "region": "יהודה",
      "name": "גבעת האבות",
      "generalData": "גבעת האבות, שכונה מחוץ לקריית ארבע, בשכונה מתגוררות כ-50 משפחות אך בקריית ארבע כולה יש כ-8000 תושבים",
      "location": [
        31.532069368199775,
        35.11045659261444
      ],
      "defaultZoom": 15
    },
    {
      "id": 5,
      "region": "יהודה",
      "name": "חוות אביגיל",
      "generalData": "חוות אביגיל, נקרא גם מצפה אביגיל, ביישוב מתגוררות כ-50 משפחות",
      "location": [
        31.403643990407435,
        35.14070592325579
      ],
      "defaultZoom": 15
    },
    {
      "id": 6,
      "region": "יהודה",
      "name": "כרמל",
      "generalData": "תיאור כללי כרמל",
      "location": [
        31.431749380457976,
        35.182606721808085
      ]
    },
    {
      "id": 7,
      "region": "יהודה",
      "name": "מעון",
      "generalData": "תיאור כללי מעון",
      "location": [
        31.414564632430235,
        35.16464245076993
      ]
    },
    {
      "id": 8,
      "region": "יהודה",
      "name": "מצפה יאיר",
      "generalData": "תיאור כללי מצפה יאיר",
      "location": [
        31.38377748756418,
        35.13515376620929
      ],
      "defaultZoom": 15
    },
    {
      "id": 9,
      "region": "יהודה",
      "name": "סוסיא",
      "generalData": "תיאור כללי סוסיא",
      "location": [
        31.392535988873362,
        35.1140220777559
      ]
    },
    {
      "id": 10,
      "region": "יהודה",
      "name": "בית דרור",
      "generalData": "תיאור כללי בית דרור",
      "location": [
        31.48452471659989,
        35.0449277948557
      ]
    },
    {
      "id": 11,
      "region": "יהודה",
      "name": "שמעה",
      "generalData": "תיאור כללי שמעה",
      "location": [
        31.387412346012166,
        35.012733828336195
      ]
    },
    {
      "id": 12,
      "region": "גוש עציון",
      "name": "גבעות",
      "generalData": "תיאור כללי גבעות",
      "location": [
        31.678953281714396, 35.101914
      ]
    },
    {
      "id": 13,
      "region": "גוש עציון",
      "name": "כרמי צור",
      "generalData": "תיאור כללי כרמי צור",
      "location": [
        31.608914892735335, 35.10125811982983
      ]
    },
    {
      "id": 14,
      "region": "גוש עציון",
      "name": "שדה בועז",
      "generalData": "תיאור כללי שדה בועז",
      "location": [
        31.693932089387445, 35.14749533667557
      ]
    },
    {
      "id": 15,
      "region": "גוש עציון",
      "name": "תקוע ד",
      "generalData": "תיאור כללי תקוע ד",
      "location": [
        31.63575346113493, 35.24300851462472
      ]
    },
    {
      "id": 16,
      "region": "גוש עציון",
      "name": "פני קדם",
      "generalData": "תיאור כללי פני קדם",
      "location": [
        31.589902648895077, 35.194895364789815
      ]
    },
    {
      "id": 17,
      "region": "גוש עציון",
      "name": "מיצד",
      "generalData": "תיאור כללי מיצד",
      "location": [
        31.586380471363427, 35.187669845401665
      ]
    },
    {
      "id": 18,
      "region": "גוש עציון",
      "name": "איבי הנחל",
      "generalData": "תיאור כללי איבי הנחל",
      "location": [
        31.60653536841999, 35.22059505300528
      ]
    },
    {
      "id": 19,
      "region": "גוש עציון",
      "name": "מעלה עמוס",
      "generalData": "תיאור כללי מעלה עמוס",
      "location": [
        31.5968437831118, 35.22966483296503
      ]
    },
    {
      "id": 20,
      "region": "גוש עציון",
      "name": "בת עין",
      "generalData": "תיאור כללי בת עין",
      "location": [
        31.657812053102, 35.102974038015624
      ]
    },
    {
      "id": 21,
      "region": "גוש עציון",
      "name": "נווה דניאל",
      "generalData": "תיאור כללי נווה דניאל",
      "location": [
        31.67731378788914, 35.143449027794546
      ]
    },
    {
      "id": 22,
      "region": "בנימין",
      "name": "אחיה",
      "generalData": "אחיה, ביישוב מתגוררות כ-80 משפחות",
      "location": [
        32.06149804588984, 35.32707035248783
      ]
    },
    {
      "id": 23,
      "region": "בנימין",
      "name": "אש קודש",
      "generalData": "אש קודש, ביישוב מתגוררות כ-90 משפחות",
      "location": [
        32.06514189202222, 35.33575865829488
      ]
    },
    {
      "id": 24,
      "region": "בנימין",
      "name": "גבעת אסף",
      "generalData": "גבעת אסף, ביישוב מתגוררות כ-50 משפחות",
      "location": [
        31.941619490374627, 35.222794620635185
      ]
    },
    {
      "id": 25,
      "region": "בנימין",
      "name": "גבעת הראל",
      "generalData": "גבעת הראל, ביישוב מתגוררות כ-80 משפחות, ביישוב יש מגרש ספורט",
      "location": [
        32.05962280438604, 35.2733088704234
      ]
    },
    {
      "id": 26,
      "region": "בנימין",
      "name": "מגרון",
      "generalData": "מגרון, ביישוב מתגוררות כ-50 משפחות, ביישוב יש מגרש כדורסל",
      "location": [
        31.87436679586067, 35.25856925264477
      ]
    },
    {
      "id": 27,
      "region": "בנימין",
      "name": "מצפה דני",
      "generalData": "מצפה דני, ביישוב מתגוררות כ-45 משפחות",
      "location": [
        31.8828259858028, 35.314055846399015
      ]
    },
    {
      "id": 28,
      "region": "בנימין",
      "name": "גבעת הרא''ה",
      "generalData": "גבעת הרא''ה, ביישוב מתגוררות כ-30 משפחות",
      "location": [
        32.05467961865661, 35.26236150795525
      ]
    },
    {
      "id": 29,
      "region": "בנימין",
      "name": "קידה",
      "generalData": "קידה הינו יישוב קהיליתי דתי שמתגוררות בו כ-100 משפחות",
      "location": [
        32.05044867382675, 35.341071969037806
      ]
    },
    {
      "id": 30,
      "region": "אפרים",
      "name": "חוות יאיר",
      "generalData": "חוות יאיר הינו יישוב קהיליתי שמתגוררות בו כ-100 משפחות",
      "location": [
        32.14522491111961, 35.104815457693626
      ]
    },
    {
      "id": 31,
      "region": "אפרים",
      "name": "אלוני שילה",
      "generalData": "אלוני שילה הינו שכונה של קרני שומרון בו מתגוררות כ-85 משפחות",
      "location": [
        32.16207270591343, 35.119418984238244
      ]
    },
    {
      "id": 32,
      "region": "אפרים",
      "name": "אל מתן",
      "generalData": "אל מתן הינו שכונה של קרני שומרון בו מתגוררות כ-20 משפחות",
      "location": [
        32.152744415661424, 35.075478592614445
      ]
    },
    {
      "id": 33,
      "region": "אפרים",
      "name": "רמת גלעד",
      "generalData": "רמת גלעד, נקרא גם גבעת הדגל או פשוט 'הדגל', הינו שכונה של קרני שומרון בו מתגוררות כ-15 משפחות",
      "location": [
        32.18075291857503, 35.11324807342414
      ]
    },
    {
      "id": 34,
      "region": "אפרים",
      "name": "כרם רעים",
      "generalData": "כרם רעים הינו יישוב קהיליתי בו מתגוררות כ-200 משפחות",
      "location": [
        31.957582990691414, 35.13926651949737
      ]
    },
    {
      "id": 35,
      "region": "אפרים",
      "name": "חרשה",
      "generalData": "חרשה הינו יישוב קבילתי בו מתגוררות כ-75 משפחות, בישוב יש מכולת",
      "location": [
        31.944829239584042, 35.148929727919885
      ]
    },
    {
      "id": 36,
      "region": "אפרים",
      "name": "נווה צוף",
      "generalData": "נווה צוף נקרא גם חלמיש, בישוב מתגוררות כ-300 משפחות, בישוב יש צרכנייה, בריכת שחייה ומגרשי כדורסל",
      "location": [
        32.006608718776114, 35.12577267740717
      ]
    }
  ],
  "reviews": [
    {
      "username": "יהונתן ליפשיץ",
      "rating": 4,
      "selectedDate": "24/05/2023",
      "peopleStaying": 4,
      "residentComment": "יש 2 חדרי מגורים עם מיטות צרפתיות, ומיטת קומותיים אחת. סה\"כ הדירה סבבה.",
      "foodComment": "אין מסעדות ביישוב",
      "guardingComment": "יש עמדת שמירה בנוייה אחת, עם מאוורר ועם חימום. צריך לעשות פטרול שלוקח בערך רבע שעה כל שעה בלילה ובבוקר. ",
      "generalComment": "הרבש\"צים ממש נחמדים ואפילו יחליפו אתכם בעמדת שמירה בארוחת שבת ובארוחת חג (שבועות 2023)",
      "name": "עשהאל",
      "id": 1
    }
  ]
}